{"type": "FeatureCollection", "features": [{"type": "Feature", "geometry": {"type": "Point", "coordinates": [144.9436835458126, -37.63030145071868]}, "properties": {"OBJECTID": 1, "Name": "Somerton IMT", "operational_status": "Operational", "Hectares": 31.33225, "KFR": "Y", "Shape_Length": 0.02873, "Shape_Area": 3.19809e-05}}, {"type": "Feature", "geometry": {"type": "Point", "coordinates": [144.9301757671628, -37.81568389489055]}, "properties": {"OBJECTID": 2, "Name": "Victoria Docks IMT", "operational_status": "Operational", "Hectares": 19.79434, "KFR": null, "Shape_Length": 0.02604, "Shape_Area": 2.02538e-05}}, {"type": "Feature", "geometry": {"type": "Point", "coordinates": [144.92405618099016, -37.80133444052976]}, "properties": {"OBJECTID": 3, "Name": "Dynon IMT and Dynon Empty Park", "operational_status": "Operational", "Hectares": 16.55351, "KFR": "Y", "Shape_Length": 0.02665, "Shape_Area": 1.69347e-05}}, {"type": "Feature", "geometry": {"type": "Point", "coordinates": [144.91170640437113, -37.80834041513042]}, "properties": {"OBJECTID": 4, "Name": "West Swanson IMT", "operational_status": "Operational", "Hectares": 11.75982, "KFR": null, "Shape_Length": 0.01784, "Shape_Area": 1.20316e-05}}, {"type": "Feature", "geometry": {"type": "Point", "coordinates": [144.92642097288206, -37.81327118555286]}, "properties": {"OBJECTID": 5, "Name": "East Swanson IMT", "operational_status": "Operational", "Hectares": 8.94525, "KFR": null, "Shape_Length": 0.02089, "Shape_Area": 9.15238e-06}}, {"type": "Feature", "geometry": {"type": "Point", "coordinates": [144.9243312203785, -37.80399374216641]}, "properties": {"OBJECTID": 6, "Name": "South Dynon IMT", "operational_status": "Operational", "Hectares": 31.68841, "KFR": "Y", "Shape_Length": 0.06199, "Shape_Area": 3.2419e-05}}, {"type": "Feature", "geometry": {"type": "Point", "coordinates": [144.88281930617455, -37.833591172253804]}, "properties": {"OBJECTID": 7, "Name": "Spotswood IMT", "operational_status": "Operational", "Hectares": 3.81522, "KFR": null, "Shape_Length": 0.00982, "Shape_Area": 3.90471e-06}}, {"type": "Feature", "geometry": {"type": "Point", "coordinates": [144.78808047370734, -37.85556995010964]}, "properties": {"OBJECTID": 8, "Name": "Laverton IMT", "operational_status": "Operational", "Hectares": 43.47324, "KFR": null, "Shape_Length": 0.03709, "Shape_Area": 4.4506e-05}}, {"type": "Feature", "geometry": {"type": "Point", "coordinates": [144.83729628228826, -37.844729935512525]}, "properties": {"OBJECTID": 9, "Name": "Altona IMT", "operational_status": "Operational", "Hectares": 17.3906, "KFR": "Y", "Shape_Length": 0.0206, "Shape_Area": 1.78011e-05}}, {"type": "Feature", "geometry": {"type": "Point", "coordinates": [145.2340624475001, -38.05050575266309]}, "properties": {"OBJECTID": 10, "Name": "South Dandenong IMT", "operational_status": "Under Construction", "Hectares": 111.83523, "KFR": null, "Shape_Length": 0.04994, "Shape_Area": 0.00011}}, {"type": "Feature", "geometry": {"type": "Point", "coordinates": [150.9678838913851, -33.857662116506965]}, "properties": {"OBJECTID": 11, "Name": "Yennora IMT", "operational_status": "Operational", "Hectares": 83.80473, "KFR": "Y", "Shape_Length": 0.04387, "Shape_Area": 8.16462e-05}}, {"type": "Feature", "geometry": {"type": "Point", "coordinates": [151.2222805655536, -33.96741007592703]}, "properties": {"OBJECTID": 12, "Name": "Port Botany IMT & Empty Park", "operational_status": "Operational", "Hectares": 15.48817, "KFR": null, "Shape_Length": 0.02453, "Shape_Area": 1.51083e-05}}, {"type": "Feature", "geometry": {"type": "Point", "coordinates": [150.84152656612434, -34.03365032671997]}, "properties": {"OBJECTID": 13, "Name": "Macarthur (Minto) IMT (MIST)", "operational_status": "Operational", "Hectares": 16.11843, "KFR": "Y", "Shape_Length": 0.02249, "Shape_Area": 1.57351e-05}}, {"type": "Feature", "geometry": {"type": "Point", "coordinates": [151.0727932339172, -33.89775879751249]}, "properties": {"OBJECTID": 14, "Name": "Enfield ILC", "operational_status": "Operational", "Hectares": 59.03418, "KFR": "Y", "Shape_Length": 0.04752, "Shape_Area": 5.75398e-05}}, {"type": "Feature", "geometry": {"type": "Point", "coordinates": [150.91842475278935, -33.95405684396386]}, "properties": {"OBJECTID": 15, "Name": "Moorebank IMT", "operational_status": "Under Construction", "Hectares": 196.31572, "KFR": null, "Shape_Length": 0.06677, "Shape_Area": 0.00019}}, {"type": "Feature", "geometry": {"type": "Point", "coordinates": [150.9909309614476, -33.88414784210892]}, "properties": {"OBJECTID": 16, "Name": "Villawood IMT", "operational_status": "Operational", "Hectares": 7.37745, "KFR": null, "Shape_Length": 0.01358, "Shape_Area": 7.18963e-06}}, {"type": "Feature", "geometry": {"type": "Point", "coordinates": [151.17287509917148, -33.91926690087984]}, "properties": {"OBJECTID": 17, "Name": "Cooks River IMT", "operational_status": "Operational", "Hectares": 17.28958, "KFR": "Y", "Shape_Length": 0.01983, "Shape_Area": 1.68562e-05}}, {"type": "Feature", "geometry": {"type": "Point", "coordinates": [151.2104703723826, -33.96721180262405]}, "properties": {"OBJECTID": 18, "Name": "Port Botany IMT", "operational_status": "Operational", "Hectares": 62.50288, "KFR": null, "Shape_Length": 0.04095, "Shape_Area": 6.09693e-05}}, {"type": "Feature", "geometry": {"type": "Point", "coordinates": [151.2173147877087, -33.97212700594139]}, "properties": {"OBJECTID": 19, "Name": "Port Botany IMT", "operational_status": "Operational", "Hectares": 39.53632, "KFR": null, "Shape_Length": 0.0291, "Shape_Area": 3.85693e-05}}, {"type": "Feature", "geometry": {"type": "Point", "coordinates": [151.03601513348963, -33.82242606659193]}, "properties": {"OBJECTID": 20, "Name": "Camellia IMT", "operational_status": "Operational", "Hectares": 2.52143, "KFR": null, "Shape_Length": 0.00766, "Shape_Area": 2.4555e-06}}, {"type": "Feature", "geometry": {"type": "Point", "coordinates": [150.8456059716455, -34.01052760375445]}, "properties": {"OBJECTID": 21, "Name": "Ingleburn IMT", "operational_status": "Proposed", "Hectares": 24.2021, "KFR": null, "Shape_Length": 0.02734, "Shape_Area": 2.36202e-05}}, {"type": "Feature", "geometry": {"type": "Point", "coordinates": [150.82530027292998, -33.804478833673535]}, "properties": {"OBJECTID": 22, "Name": "Eastern Creek IMT", "operational_status": "Proposed", "Hectares": 326.25089, "KFR": null, "Shape_Length": 0.12183, "Shape_Area": 0.00031}}, {"type": "Feature", "geometry": {"type": "Point", "coordinates": [150.9259803748189, -33.95349783198042]}, "properties": {"OBJECTID": 23, "Name": "Moorebank IMEX Logistics Park", "operational_status": "Operational", "Hectares": 82.91227, "KFR": null, "Shape_Length": 0.03797, "Shape_Area": 8.0866e-05}}, {"type": "Feature", "geometry": {"type": "Point", "coordinates": [153.033438222528, -27.58126320489427]}, "properties": {"OBJECTID": 24, "Name": "Acacia Ridge IMT", "operational_status": "Operational", "Hectares": 172.30246, "KFR": "Y", "Shape_Length": 0.06381, "Shape_Area": 0.00015}}, {"type": "Feature", "geometry": {"type": "Point", "coordinates": [153.17689667793925, -27.3770636735791]}, "properties": {"OBJECTID": 25, "Name": "Brisbane Multimodal Terminal (BMT)", "operational_status": "Operational", "Hectares": 146.87233, "KFR": "Y", "Shape_Length": 0.06951, "Shape_Area": 0.00013}}, {"type": "Feature", "geometry": {"type": "Point", "coordinates": [138.27604102469454, -34.16734453701647]}, "properties": {"OBJECTID": 26, "Name": "Bowmans IMT", "operational_status": "Operational", "Hectares": 34.28686, "KFR": "Y", "Shape_Length": 0.04221, "Shape_Area": 3.35235e-05}}, {"type": "Feature", "geometry": {"type": "Point", "coordinates": [138.5198228135712, -34.829018747016754]}, "properties": {"OBJECTID": 27, "Name": "Port of Adelaide - Kerry Logistics IMT", "operational_status": "Operational", "Hectares": 53.3955, "KFR": "Y", "Shape_Length": 0.04607, "Shape_Area": 5.26152e-05}}, {"type": "Feature", "geometry": {"type": "Point", "coordinates": [138.5166298017566, -34.82119404963441]}, "properties": {"OBJECTID": 28, "Name": "Port of Adelaide - Patrick IMT", "operational_status": "Operational", "Hectares": 30.70128, "KFR": null, "Shape_Length": 0.02237, "Shape_Area": 3.02497e-05}}, {"type": "Feature", "geometry": {"type": "Point", "coordinates": [138.577263673355, -34.8654985227757]}, "properties": {"OBJECTID": 29, "Name": "Islington IMT (Adelaide Freight Terminal)", "operational_status": "Operational", "Hectares": 47.73046, "KFR": "Y", "Shape_Length": 0.03963, "Shape_Area": 4.70535e-05}}, {"type": "Feature", "geometry": {"type": "Point", "coordinates": [139.11731235352752, -35.126193925986485]}, "properties": {"OBJECTID": 30, "Name": "South Monarto IMT", "operational_status": "Proposed", "Hectares": 34.69448, "KFR": null, "Shape_Length": 0.05033, "Shape_Area": 3.43114e-05}}, {"type": "Feature", "geometry": {"type": "Point", "coordinates": [142.198976109418, -36.70703533797581]}, "properties": {"OBJECTID": 31, "Name": "Horsham Container Terminal", "operational_status": "Operational", "Hectares": 3.26767, "KFR": null, "Shape_Length": 0.01209, "Shape_Area": 3.29544e-06}}, {"type": "Feature", "geometry": {"type": "Point", "coordinates": [142.28918943695658, -36.64068824319414]}, "properties": {"OBJECTID": 32, "Name": "Wimmera IMT (WIFT)", "operational_status": "Operational", "Hectares": 34.35952, "KFR": "Y", "Shape_Length": 0.05715, "Shape_Area": 3.46232e-05}}, {"type": "Feature", "geometry": {"type": "Point", "coordinates": [145.33912063266297, -36.41670001355388]}, "properties": {"OBJECTID": 33, "Name": "Goulburn Valley Freight and Logistic Centre (GVFLC)", "operational_status": "Proposed", "Hectares": 322.41089, "KFR": null, "Shape_Length": 0.11882, "Shape_Area": 0.00032}}, {"type": "Feature", "geometry": {"type": "Point", "coordinates": [145.34289703067228, -36.41804971053935]}, "properties": {"OBJECTID": 34, "Name": "Goulburn Valley IMT", "operational_status": "Proposed", "Hectares": 18.87034, "KFR": null, "Shape_Length": 0.0349, "Shape_Area": 1.8961e-05}}, {"type": "Feature", "geometry": {"type": "Point", "coordinates": [145.35651296658372, -36.399123245497094]}, "properties": {"OBJECTID": 35, "Name": "Shepparton IMT", "operational_status": "Operational", "Hectares": 1.10919, "KFR": null, "Shape_Length": 0.01434, "Shape_Area": 1.11422e-06}}, {"type": "Feature", "geometry": {"type": "Point", "coordinates": [138.49503574597207, -34.773719698825005]}, "properties": {"OBJECTID": 36, "Name": "Port of Adelaide - MacKenzie IMT", "operational_status": "Operational", "Hectares": 14.73624, "KFR": null, "Shape_Length": 0.02593, "Shape_Area": 1.45112e-05}}, {"type": "Feature", "geometry": {"type": "Point", "coordinates": [130.8811562114537, -12.488786703901823]}, "properties": {"OBJECTID": 37, "Name": "East Arm IMT", "operational_status": "Operational", "Hectares": 3.81535, "KFR": null, "Shape_Length": 0.0089, "Shape_Area": 3.17276e-06}}, {"type": "Feature", "geometry": {"type": "Point", "coordinates": [130.9150078241526, -12.46847504760121]}, "properties": {"OBJECTID": 38, "Name": "Berrimah IMT", "operational_status": "Operational", "Hectares": 17.60461, "KFR": null, "Shape_Length": 0.04472, "Shape_Area": 1.46388e-05}}, {"type": "Feature", "geometry": {"type": "Point", "coordinates": [132.24923297312498, -14.510671943586473]}, "properties": {"OBJECTID": 39, "Name": "Katherine IMT", "operational_status": "Operational", "Hectares": 7.06701, "KFR": null, "Shape_Length": 0.01652, "Shape_Area": 5.92569e-06}}, {"type": "Feature", "geometry": {"type": "Point", "coordinates": [134.17611826062517, -19.69612280243463]}, "properties": {"OBJECTID": 40, "Name": "Tennant Creek IMT", "operational_status": "Operational", "Hectares": 6.44763, "KFR": null, "Shape_Length": 0.01255, "Shape_Area": 5.55517e-06}}, {"type": "Feature", "geometry": {"type": "Point", "coordinates": [138.59710909321342, -34.69982231490346]}, "properties": {"OBJECTID": 41, "Name": "Penfield IMT", "operational_status": "Operational", "Hectares": 46.71106, "KFR": "Y", "Shape_Length": 0.05785, "Shape_Area": 4.59577e-05}}, {"type": "Feature", "geometry": {"type": "Point", "coordinates": [138.5782520923969, -34.851365268664]}, "properties": {"OBJECTID": 42, "Name": "Regency Park IMT", "operational_status": "Operational", "Hectares": 2.40364, "KFR": null, "Shape_Length": 0.0107, "Shape_Area": 2.36914e-06}}, {"type": "Feature", "geometry": {"type": "Point", "coordinates": [136.80420032195784, -31.241239566539377]}, "properties": {"OBJECTID": 43, "Name": "Pimba IMT", "operational_status": "Operational", "Hectares": 42.46164, "KFR": null, "Shape_Length": 0.02952, "Shape_Area": 4.02015e-05}}, {"type": "Feature", "geometry": {"type": "Point", "coordinates": [146.99511098072298, -35.987284182565915]}, "properties": {"OBJECTID": 44, "Name": "Ettamogah Freight Hub (EFH)", "operational_status": "Operational", "Hectares": 26.14686, "KFR": null, "Shape_Length": 0.02901, "Shape_Area": 2.61307e-05}}, {"type": "Feature", "geometry": {"type": "Point", "coordinates": [147.4150114554726, -35.06844087058972]}, "properties": {"OBJECTID": 45, "Name": "Bomen Freight Terminal", "operational_status": "Operational", "Hectares": 5.85215, "KFR": null, "Shape_Length": 0.01273, "Shape_Area": 5.78319e-06}}, {"type": "Feature", "geometry": {"type": "Point", "coordinates": [148.122496665513, -33.134395986893196]}, "properties": {"OBJECTID": 46, "Name": "Parkes National Logistics Hub (PNLH)", "operational_status": "Operational", "Hectares": 58.19454, "KFR": null, "Shape_Length": 0.03883, "Shape_Area": 5.62331e-05}}, {"type": "Feature", "geometry": {"type": "Point", "coordinates": [142.45758881019543, -38.36617262625998]}, "properties": {"OBJECTID": 47, "Name": "Dennington IMT", "operational_status": "Operational", "Hectares": 5.54009, "KFR": "Y", "Shape_Length": 0.01574, "Shape_Area": 5.71083e-06}}, {"type": "Feature", "geometry": {"type": "Point", "coordinates": [142.35754267948258, -35.72544189534413]}, "properties": {"OBJECTID": 48, "Name": "Hopetoun IMT", "operational_status": "Operational", "Hectares": 2.36016, "KFR": null, "Shape_Length": 0.00985, "Shape_Area": 2.35105e-06}}, {"type": "Feature", "geometry": {"type": "Point", "coordinates": [145.5570805116008, -35.8056448678525]}, "properties": {"OBJECTID": 49, "Name": "Tocumwal IMT (Greys Container Terminal)", "operational_status": "Operational", "Hectares": 8.86171, "KFR": null, "Shape_Length": 0.0158, "Shape_Area": 8.83634e-06}}, {"type": "Feature", "geometry": {"type": "Point", "coordinates": [142.0608587696701, -34.170290256511834]}, "properties": {"OBJECTID": 50, "Name": "Merbein (Iron Horse) IMT", "operational_status": "Operational", "Hectares": 19.9754, "KFR": "Y", "Shape_Length": 0.03808, "Shape_Area": 1.95314e-05}}, {"type": "Feature", "geometry": {"type": "Point", "coordinates": [146.44643599800582, -38.18962271828442]}, "properties": {"OBJECTID": 51, "Name": "Maryvale IMT", "operational_status": "Operational", "Hectares": 11.21075, "KFR": "Y", "Shape_Length": 0.01919, "Shape_Area": 1.15285e-05}}, {"type": "Feature", "geometry": {"type": "Point", "coordinates": [142.98932270946798, -36.3694237618969]}, "properties": {"OBJECTID": 52, "Name": "Donald IMT", "operational_status": "Operational", "Hectares": 1.79518, "KFR": "Y", "Shape_Length": 0.00852, "Shape_Area": 1.80269e-06}}, {"type": "Feature", "geometry": {"type": "Point", "coordinates": [147.23043940601931, -42.71513546455611]}, "properties": {"OBJECTID": 53, "Name": "Brighton IMT (BTH)", "operational_status": "Operational", "Hectares": 90.83947, "KFR": "Y", "Shape_Length": 0.06601, "Shape_Area": 9.98248e-05}}, {"type": "Feature", "geometry": {"type": "Point", "coordinates": [145.9108985465526, -41.04974212606353]}, "properties": {"OBJECTID": 54, "Name": "Burnie ITM (Northern Marshalling Yard)", "operational_status": "Operational", "Hectares": 6.3811, "KFR": null, "Shape_Length": 0.0143, "Shape_Area": 6.8345e-06}}, {"type": "Feature", "geometry": {"type": "Point", "coordinates": [146.85303993581587, -41.137087757476344]}, "properties": {"OBJECTID": 55, "Name": "Bell Bay ITM", "operational_status": "Operational", "Hectares": 45.36217, "KFR": null, "Shape_Length": 0.09062, "Shape_Area": 4.8649e-05}}, {"type": "Feature", "geometry": {"type": "Point", "coordinates": [133.874011335277, -23.69612963623059]}, "properties": {"OBJECTID": 56, "Name": "Alice Springs IMT", "operational_status": "Operational", "Hectares": 9.95305, "KFR": null, "Shape_Length": 0.0266, "Shape_Area": 8.81134e-06}}, {"type": "Feature", "geometry": {"type": "Point", "coordinates": [151.85678760903596, -27.504734210371403]}, "properties": {"OBJECTID": 57, "Name": "InterLinkSQ (Industrial Estate)", "operational_status": "Proposed", "Hectares": 137.07366, "KFR": null, "Shape_Length": 0.06364, "Shape_Area": 0.00012}}, {"type": "Feature", "geometry": {"type": "Point", "coordinates": [121.42846160322051, -30.77737493397508]}, "properties": {"OBJECTID": 58, "Name": "West Kalgoorlie IMT", "operational_status": "Operational", "Hectares": 47.40273, "KFR": "Y", "Shape_Length": 0.03419, "Shape_Area": 4.46673e-05}}, {"type": "Feature", "geometry": {"type": "Point", "coordinates": [121.42227878319574, -30.774044850076297]}, "properties": {"OBJECTID": 59, "Name": "West Kalgoorlie", "operational_status": "Proposed", "Hectares": 34.87159, "KFR": null, "Shape_Length": 0.02707, "Shape_Area": 3.28573e-05}}, {"type": "Feature", "geometry": {"type": "Point", "coordinates": [121.41267304089219, -30.803591304213136]}, "properties": {"OBJECTID": 60, "Name": "West Kalgoorlie (ANZAC Dr)", "operational_status": "Proposed", "Hectares": 213.41929, "KFR": null, "Shape_Length": 0.05705, "Shape_Area": 0.0002}}, {"type": "Feature", "geometry": {"type": "Point", "coordinates": [151.04653846126428, -33.888583347832004]}, "properties": {"OBJECTID": 61, "Name": "Chullora IMT", "operational_status": "Operational", "Hectares": 19.88351, "KFR": "Y", "Shape_Length": 0.02969, "Shape_Area": 1.93787e-05}}, {"type": "Feature", "geometry": {"type": "Point", "coordinates": [115.98824049407507, -31.96338853709448]}, "properties": {"OBJECTID": 62, "Name": "Forrestfield IMT (FIT)", "operational_status": "Operational", "Hectares": 146.34539, "KFR": "Y", "Shape_Length": 0.0927, "Shape_Area": 0.00013}}, {"type": "Feature", "geometry": {"type": "Point", "coordinates": [115.96753075621388, -31.984384543458578]}, "properties": {"OBJECTID": 63, "Name": "Kewdale IMT (KIT)", "operational_status": "Operational", "Hectares": 126.98709, "KFR": "Y", "Shape_Length": 0.0675, "Shape_Area": 0.00012}}, {"type": "Feature", "geometry": {"type": "Point", "coordinates": [115.78513590061375, -32.23958059735175]}, "properties": {"OBJECTID": 64, "Name": "Kwinana IMT", "operational_status": "Operational", "Hectares": 73.46304, "KFR": "Y", "Shape_Length": 0.05311, "Shape_Area": 7.02921e-05}}, {"type": "Feature", "geometry": {"type": "Point", "coordinates": [115.74326057493113, -32.04099538203678]}, "properties": {"OBJECTID": 65, "Name": "North Quay Rail Terminal (NQRT)", "operational_status": "Operational", "Hectares": 8.21678, "KFR": "Y", "Shape_Length": 0.01912, "Shape_Area": 7.84535e-06}}, {"type": "Feature", "geometry": {"type": "Point", "coordinates": [147.80617353949592, -31.729743565402394]}, "properties": {"OBJECTID": 66, "Name": "Namoi IMT", "operational_status": "Operational", "Hectares": 6.44116, "KFR": null, "Shape_Length": 0.01136, "Shape_Area": 6.12966e-06}}, {"type": "Feature", "geometry": {"type": "Point", "coordinates": [149.60344176021624, -33.421857917215334]}, "properties": {"OBJECTID": 67, "Name": "Grainforce Rail Terminal", "operational_status": "Operational", "Hectares": 5.47094, "KFR": null, "Shape_Length": 0.01896, "Shape_Area": 5.30361e-06}}, {"type": "Feature", "geometry": {"type": "Point", "coordinates": [149.6261991317752, -33.422252659127516]}, "properties": {"OBJECTID": 68, "Name": "Gateway Enterprise Park", "operational_status": "Proposed", "Hectares": 35.27855, "KFR": null, "Shape_Length": 0.03017, "Shape_Area": 3.41997e-05}}, {"type": "Feature", "geometry": {"type": "Point", "coordinates": [149.85026302396787, -29.531443480169838]}, "properties": {"OBJECTID": 69, "Name": "Moree IMT", "operational_status": "Operational", "Hectares": 30.84622, "KFR": null, "Shape_Length": 0.023, "Shape_Area": 2.87078e-05}}, {"type": "Feature", "geometry": {"type": "Point", "coordinates": [148.6185202832294, -32.22901228689353]}, "properties": {"OBJECTID": 70, "Name": "Dubbo IMT", "operational_status": "Operational", "Hectares": 15.8977, "KFR": null, "Shape_Length": 0.02524, "Shape_Area": 1.52098e-05}}, {"type": "Feature", "geometry": {"type": "Point", "coordinates": [148.1485872373402, -33.13986031193852]}, "properties": {"OBJECTID": 71, "Name": "Linfox Freight Terminal Parkes", "operational_status": "Operational", "Hectares": 3.95196, "KFR": null, "Shape_Length": 0.01194, "Shape_Area": 3.81893e-06}}, {"type": "Feature", "geometry": {"type": "Point", "coordinates": [149.7425193924749, -30.339544593266087]}, "properties": {"OBJECTID": 72, "Name": "Narrabri Freight Terminal", "operational_status": "Operational", "Hectares": 19.7944, "KFR": null, "Shape_Length": 0.01894, "Shape_Area": 1.85693e-05}}, {"type": "Feature", "geometry": {"type": "Point", "coordinates": [151.77601144282522, -32.875430546620535]}, "properties": {"OBJECTID": 73, "Name": "Kooragang Island IMT", "operational_status": "Operational", "Hectares": 4.93615, "KFR": null, "Shape_Length": 0.01077, "Shape_Area": 4.75599e-06}}, {"type": "Feature", "geometry": {"type": "Point", "coordinates": [148.02495688778018, -33.35732059934536]}, "properties": {"OBJECTID": 74, "Name": "Forbes IMT", "operational_status": "Operational", "Hectares": 8.76723, "KFR": null, "Shape_Length": 0.01325, "Shape_Area": 8.49299e-06}}, {"type": "Feature", "geometry": {"type": "Point", "coordinates": [148.0292644566859, -34.642004787923284]}, "properties": {"OBJECTID": 75, "Name": "Cootamundra IMT", "operational_status": "Operational", "Hectares": 2.84767, "KFR": null, "Shape_Length": 0.01315, "Shape_Area": 2.79971e-06}}, {"type": "Feature", "geometry": {"type": "Point", "coordinates": [146.616053934041, -34.7314107891562]}, "properties": {"OBJECTID": 76, "Name": "Narrandera Intermodal Hub (NIH)", "operational_status": "Proposed", "Hectares": 97.73488, "KFR": null, "Shape_Length": 0.04811, "Shape_Area": 9.61957e-05}}, {"type": "Feature", "geometry": {"type": "Point", "coordinates": [146.04868855997717, -34.2863436816831]}, "properties": {"OBJECTID": 77, "Name": "Griffith IMT", "operational_status": "Operational", "Hectares": 5.00442, "KFR": null, "Shape_Length": 0.01788, "Shape_Area": 4.8998e-06}}, {"type": "Feature", "geometry": {"type": "Point", "coordinates": [146.2263859602352, -34.370326628066884]}, "properties": {"OBJECTID": 78, "Name": "Western Riverina Intermodal Freight Terminal (WRIFT)", "operational_status": "Operational", "Hectares": 46.99224, "KFR": null, "Shape_Length": 0.10078, "Shape_Area": 4.60551e-05}}, {"type": "Feature", "geometry": {"type": "Point", "coordinates": [146.22935740704958, -34.37491281007414]}, "properties": {"OBJECTID": 79, "Name": "Wumbulgal Intermodal Grain Terminal", "operational_status": "Operational", "Hectares": 109.76205, "KFR": null, "Shape_Length": 0.07289, "Shape_Area": 0.0001}}, {"type": "Feature", "geometry": {"type": "Point", "coordinates": [149.25436106975243, -33.5266629008544]}, "properties": {"OBJECTID": 80, "Name": "Blayney Linfox Container Terminal", "operational_status": "Operational", "Hectares": 2.83045, "KFR": null, "Shape_Length": 0.01068, "Shape_Area": 2.74714e-06}}, {"type": "Feature", "geometry": {"type": "Point", "coordinates": [151.76981794306946, -32.91260502243176]}, "properties": {"OBJECTID": 81, "Name": "Carrington IMT", "operational_status": "Operational", "Hectares": 3.57068, "KFR": null, "Shape_Length": 0.00769, "Shape_Area": 3.4418e-06}}, {"type": "Feature", "geometry": {"type": "Point", "coordinates": [151.70128769929278, -32.865969346176904]}, "properties": {"OBJECTID": 82, "Name": "Sandgate IMT", "operational_status": "Operational", "Hectares": 10.91123, "KFR": null, "Shape_Length": 0.01697, "Shape_Area": 1.05119e-05}}, {"type": "Feature", "geometry": {"type": "Point", "coordinates": [149.42843199862565, -30.229254216907886]}, "properties": {"OBJECTID": 83, "Name": "Wee Waa IMT", "operational_status": "Operational", "Hectares": 23.20772, "KFR": null, "Shape_Length": 0.02522, "Shape_Area": 2.17474e-05}}, {"type": "Feature", "geometry": {"type": "Point", "coordinates": [145.7640062456872, -16.944990981997467]}, "properties": {"OBJECTID": 84, "Name": "Cairns IMT", "operational_status": "Operational", "Hectares": 10.47503, "KFR": "Y", "Shape_Length": 0.02174, "Shape_Area": 8.8861e-06}}, {"type": "Feature", "geometry": {"type": "Point", "coordinates": [146.8196207565418, -19.267599326868165]}, "properties": {"OBJECTID": 85, "Name": "Townsville IMT", "operational_status": "Operational", "Hectares": 17.89546, "KFR": "Y", "Shape_Length": 0.01831, "Shape_Area": 1.53786e-05}}, {"type": "Feature", "geometry": {"type": "Point", "coordinates": [147.39567360920674, -19.574398677188668]}, "properties": {"OBJECTID": 86, "Name": "Ayr IMT", "operational_status": "Operational", "Hectares": 1.15857, "KFR": null, "Shape_Length": 0.0074, "Shape_Area": 9.97495e-07}}, {"type": "Feature", "geometry": {"type": "Point", "coordinates": [140.52412519407952, -20.716496688588943]}, "properties": {"OBJECTID": 87, "Name": "Cloncurry IMT", "operational_status": "Operational", "Hectares": 3.85717, "KFR": null, "Shape_Length": 0.01418, "Shape_Area": 3.3446e-06}}, {"type": "Feature", "geometry": {"type": "Point", "coordinates": [139.4867391216809, -20.686755413478732]}, "properties": {"OBJECTID": 88, "Name": "Mt Isa IMT", "operational_status": "Operational", "Hectares": 6.48449, "KFR": null, "Shape_Length": 0.01466, "Shape_Area": 5.62169e-06}}, {"type": "Feature", "geometry": {"type": "Point", "coordinates": [151.16324494457405, -23.850045621391022]}, "properties": {"OBJECTID": 89, "Name": "Gladstone (Yarwun) IMT", "operational_status": "Operational", "Hectares": 2.38696, "KFR": "Y", "Shape_Length": 0.00856, "Shape_Area": 2.1156e-06}}, {"type": "Feature", "geometry": {"type": "Point", "coordinates": [145.93403968682003, -17.959672717425935]}, "properties": {"OBJECTID": 90, "Name": "Tully IMT", "operational_status": "Operational", "Hectares": 9.3773, "KFR": null, "Shape_Length": 0.01615, "Shape_Area": 7.99825e-06}}, {"type": "Feature", "geometry": {"type": "Point", "coordinates": [150.51737977201674, -23.38950416271452]}, "properties": {"OBJECTID": 91, "Name": "Rockhampton IMT", "operational_status": "Operational", "Hectares": 10.10169, "KFR": "Y", "Shape_Length": 0.01251, "Shape_Area": 8.92262e-06}}, {"type": "Feature", "geometry": {"type": "Point", "coordinates": [149.1580623537465, -21.170183634118654]}, "properties": {"OBJECTID": 92, "Name": "Mackay (Paget) IMT", "operational_status": "Operational", "Hectares": 11.64634, "KFR": "Y", "Shape_Length": 0.01639, "Shape_Area": 1.01286e-05}}, {"type": "Feature", "geometry": {"type": "Point", "coordinates": [146.02075982882343, -17.529612014819946]}, "properties": {"OBJECTID": 93, "Name": "Innisfail IMT", "operational_status": "Operational", "Hectares": 5.26075, "KFR": null, "Shape_Length": 0.01477, "Shape_Area": 4.47655e-06}}, {"type": "Feature", "geometry": {"type": "Point", "coordinates": [148.16650249975422, -20.013914042678692]}, "properties": {"OBJECTID": 94, "Name": "Bowen (Merinda) IMT", "operational_status": "Operational", "Hectares": 11.60328, "KFR": null, "Shape_Length": 0.01814, "Shape_Area": 1.00167e-05}}, {"type": "Feature", "geometry": {"type": "Point", "coordinates": [150.42472879608664, -23.454378920537494]}, "properties": {"OBJECTID": 95, "Name": "Central Queensland Intermodal Logistics Hub (CQILH)", "operational_status": "Proposed", "Hectares": 22.15175, "KFR": null, "Shape_Length": 0.01896, "Shape_Area": 1.95754e-05}}, {"type": "Feature", "geometry": {"type": "Point", "coordinates": [153.001537752961, -27.52919309395548]}, "properties": {"OBJECTID": 96, "Name": "Tennyson IMT", "operational_status": "Operational", "Hectares": 14.18623, "KFR": "Y", "Shape_Length": 0.01554, "Shape_Area": 1.29594e-05}}, {"type": "Feature", "geometry": {"type": "Point", "coordinates": [146.7109208752902, -36.08662836405341]}, "properties": {"OBJECTID": 97, "Name": "Barnawartha Intermodal Rail Terminal (Logic Wodonga)", "operational_status": "Operational", "Hectares": 38.51729, "KFR": null, "Shape_Length": 0.06776, "Shape_Area": 3.85215e-05}}, {"type": "Feature", "geometry": {"type": "Point", "coordinates": [115.69012494850313, -33.35199996133368]}, "properties": {"OBJECTID": 98, "Name": "Picton Container Terminal", "operational_status": "Operational", "Hectares": 3.95129, "KFR": "Y", "Shape_Length": 0.02102, "Shape_Area": 3.82744e-06}}, {"type": "Feature", "geometry": {"type": "Point", "coordinates": [121.90419321999951, -33.87332778845927]}, "properties": {"OBJECTID": 99, "Name": "Esperance IMT", "operational_status": "Operational", "Hectares": 8.71082, "KFR": "Y", "Shape_Length": 0.01173, "Shape_Area": 8.488e-06}}, {"type": "Feature", "geometry": {"type": "Point", "coordinates": [121.90258310472666, -33.87571758816358]}, "properties": {"OBJECTID": 100, "Name": "Esperance Multi User Iron Ore Facility (MUIOF)", "operational_status": "Operational", "Hectares": 7.53007, "KFR": null, "Shape_Length": 0.0109, "Shape_Area": 7.33766e-06}}, {"type": "Feature", "geometry": {"type": "Point", "coordinates": [116.01092281877409, -29.188581900724873]}, "properties": {"OBJECTID": 101, "Name": "Tilley Siding Iron Ore Loading Facilty", "operational_status": "Operational", "Hectares": 19.5793, "KFR": null, "Shape_Length": 0.02873, "Shape_Area": 1.8162e-05}}, {"type": "Feature", "geometry": {"type": "Point", "coordinates": [116.31630267460095, -29.455643010539998]}, "properties": {"OBJECTID": 102, "Name": "Perenjori Siding Iron Ore Loading Facility", "operational_status": "Operational", "Hectares": 82.70451, "KFR": null, "Shape_Length": 0.056, "Shape_Area": 7.69172e-05}}, {"type": "Feature", "geometry": {"type": "Point", "coordinates": [115.48555186264949, -28.534179198333618]}, "properties": {"OBJECTID": 103, "Name": "Mullewa Siding Iron Ore Loading Facility", "operational_status": "Closed", "Hectares": 39.96976, "KFR": null, "Shape_Length": 0.02897, "Shape_Area": 3.68485e-05}}, {"type": "Feature", "geometry": {"type": "Point", "coordinates": [148.02741150578728, -34.64921069251124]}, "properties": {"OBJECTID": 104, "Name": "Cootamundra Intermodal Rail Terminal (South West Export Park)", "operational_status": "Proposed", "Hectares": 23.5777, "KFR": null, "Shape_Length": 0.02277, "Shape_Area": 2.31836e-05}}, {"type": "Feature", "geometry": {"type": "Point", "coordinates": [152.92312645183756, -27.962015548713158]}, "properties": {"OBJECTID": 105, "Name": "Bromelton IMT", "operational_status": "Operational", "Hectares": 135.09151, "KFR": null, "Shape_Length": 0.06006, "Shape_Area": 0.00012}}, {"type": "Feature", "geometry": {"type": "Point", "coordinates": [151.02243042047428, -33.83852111412408]}, "properties": {"OBJECTID": 106, "Name": "Clyde IMT", "operational_status": "Operational", "Hectares": 8.43979, "KFR": null, "Shape_Length": 0.01784, "Shape_Area": 8.22061e-06}}, {"type": "Feature", "geometry": {"type": "Point", "coordinates": [151.01955648188058, -33.84374242125012]}, "properties": {"OBJECTID": 107, "Name": "Clyde IMT", "operational_status": "Proposed", "Hectares": 14.54494, "KFR": null, "Shape_Length": 0.02112, "Shape_Area": 1.4168e-05}}, {"type": "Feature", "geometry": {"type": "Point", "coordinates": [146.83490775045655, -19.334509926628705]}, "properties": {"OBJECTID": 108, "Name": "Stuart Intermodal Facility", "operational_status": "Proposed", "Hectares": 4.30063, "KFR": "Y", "Shape_Length": 0.01791, "Shape_Area": 3.69723e-06}}, {"type": "Feature", "geometry": {"type": "Point", "coordinates": [149.63756387214517, -35.08427314558198]}, "properties": {"OBJECTID": 109, "Name": "Crisps Creek IMT", "operational_status": "Operational", "Hectares": 9.19694, "KFR": null, "Shape_Length": 0.01724, "Shape_Area": 9.09029e-06}}, {"type": "Feature", "geometry": {"type": "Point", "coordinates": [149.61045498161903, -33.42610111816039]}, "properties": {"OBJECTID": 110, "Name": "Bathurst Rail Intermodal Terminal (BRIT)", "operational_status": "Operational", "Hectares": 6.61247, "KFR": null, "Shape_Length": 0.01385, "Shape_Area": 6.41055e-06}}, {"type": "Feature", "geometry": {"type": "Point", "coordinates": [149.27220370469277, -33.53167699573748]}, "properties": {"OBJECTID": 111, "Name": "SeaLink Rail Terminal", "operational_status": "Operational", "Hectares": 6.65164, "KFR": null, "Shape_Length": 0.0378, "Shape_Area": 6.45633e-06}}, {"type": "Feature", "geometry": {"type": "Point", "coordinates": [147.34896363345948, -34.82258901164206]}, "properties": {"OBJECTID": 112, "Name": "Marrar Container Park", "operational_status": "Operational", "Hectares": 12.14923, "KFR": null, "Shape_Length": 0.02801, "Shape_Area": 1.19708e-05}}, {"type": "Feature", "geometry": {"type": "Point", "coordinates": [148.36121217029608, -30.99227187704113]}, "properties": {"OBJECTID": 113, "Name": "Coonamble Container Park", "operational_status": "Operational", "Hectares": 7.42929, "KFR": null, "Shape_Length": 0.01946, "Shape_Area": 7.01576e-06}}, {"type": "Feature", "geometry": {"type": "Point", "coordinates": [148.64189347512777, -32.20156497733706]}, "properties": {"OBJECTID": 114, "Name": "Dubbo Fletcher IMT", "operational_status": "Operational", "Hectares": 15.57923, "KFR": null, "Shape_Length": 0.02589, "Shape_Area": 1.49006e-05}}, {"type": "Feature", "geometry": {"type": "Point", "coordinates": [147.51771618707915, -34.96255640238633]}, "properties": {"OBJECTID": 115, "Name": "Harefield IMT", "operational_status": "Operational", "Hectares": 9.72531, "KFR": null, "Shape_Length": 0.02728, "Shape_Area": 9.59821e-06}}, {"type": "Feature", "geometry": {"type": "Point", "coordinates": [149.7753258553427, -30.308115514046573]}, "properties": {"OBJECTID": 116, "Name": "Narrabri IMT", "operational_status": "Operational", "Hectares": 24.02457, "KFR": null, "Shape_Length": 0.0277, "Shape_Area": 2.25307e-05}}, {"type": "Feature", "geometry": {"type": "Point", "coordinates": [148.22013050041002, -32.2535472058806]}, "properties": {"OBJECTID": 117, "Name": "Narromine Container Park", "operational_status": "Operational", "Hectares": 4.41786, "KFR": null, "Shape_Length": 0.01995, "Shape_Area": 4.22804e-06}}, {"type": "Feature", "geometry": {"type": "Point", "coordinates": [148.0148523685565, -32.056371879427516]}, "properties": {"OBJECTID": 118, "Name": "Trangie South Freight Terminal", "operational_status": "Operational", "Hectares": 14.88671, "KFR": null, "Shape_Length": 0.01621, "Shape_Area": 1.42161e-05}}, {"type": "Feature", "geometry": {"type": "Point", "coordinates": [151.77660013245517, -32.88661094011464]}, "properties": {"OBJECTID": 119, "Name": "Kooragang Wharf IMT", "operational_status": "Operational", "Hectares": 2.83272, "KFR": null, "Shape_Length": 0.01017, "Shape_Area": 2.72969e-06}}, {"type": "Feature", "geometry": {"type": "Point", "coordinates": [148.12976102278319, -32.99498836661788]}, "properties": {"OBJECTID": 120, "Name": "Goonumbla Freight Terminal", "operational_status": "Operational", "Hectares": 8.80218, "KFR": null, "Shape_Length": 0.01926, "Shape_Area": 8.49221e-06}}, {"type": "Feature", "geometry": {"type": "Point", "coordinates": [153.0272717134723, -28.813957282094144]}, "properties": {"OBJECTID": 121, "Name": "Casino Rail Freight Terminal (CRFT)", "operational_status": "Under Construction", "Hectares": 124.5278, "KFR": null, "Shape_Length": 0.05422, "Shape_Area": 0.00011}}, {"type": "Feature", "geometry": {"type": "Point", "coordinates": [153.0274054661864, -28.83010374853104]}, "properties": {"OBJECTID": 122, "Name": "Pacific Intermodal and Logistics Industrial Park", "operational_status": "Proposed", "Hectares": 46.6567, "KFR": null, "Shape_Length": 0.03655, "Shape_Area": 4.31325e-05}}, {"type": "Feature", "geometry": {"type": "Point", "coordinates": [150.90638014795007, -31.097939611007288]}, "properties": {"OBJECTID": 123, "Name": "West Tamworth Freight Terminal", "operational_status": "Operational", "Hectares": 5.12415, "KFR": null, "Shape_Length": 0.01392, "Shape_Area": 4.84423e-06}}, {"type": "Feature", "geometry": {"type": "Point", "coordinates": [147.41324022647507, -35.074482409206794]}, "properties": {"OBJECTID": 124, "Name": "Bomen Freight Terminal", "operational_status": "Operational", "Hectares": 1.36129, "KFR": null, "Shape_Length": 0.0081, "Shape_Area": 1.34535e-06}}, {"type": "Feature", "geometry": {"type": "Point", "coordinates": [147.42673906192755, -35.05086287017292]}, "properties": {"OBJECTID": 125, "Name": "Riverina Intermodal Freight and Logistics Hub (RiFL Hub)", "operational_status": "Proposed", "Hectares": 48.12033, "KFR": null, "Shape_Length": 0.0504, "Shape_Area": 4.75433e-05}}, {"type": "Feature", "geometry": {"type": "Point", "coordinates": [150.36115087674597, -34.52090617230727]}, "properties": {"OBJECTID": 126, "Name": "Southern Highlands Intermodal and Logistics Hub", "operational_status": "Proposed", "Hectares": 757.37536, "KFR": null, "Shape_Length": 0.21028, "Shape_Area": 0.00074}}, {"type": "Feature", "geometry": {"type": "Point", "coordinates": [146.73409295255652, -31.547520813785553]}, "properties": {"OBJECTID": 127, "Name": "Hermidale Freight Terminal (Hera & Tritton Mines)", "operational_status": "Operational", "Hectares": 8.4171, "KFR": null, "Shape_Length": 0.02944, "Shape_Area": 7.99438e-06}}, {"type": "Feature", "geometry": {"type": "Point", "coordinates": [144.69755422796715, -37.79813539510003]}, "properties": {"OBJECTID": 128, "Name": "Western Intermodal Freight Terminal (WIFT)", "operational_status": "Proposed", "Hectares": 995.65644, "KFR": null, "Shape_Length": 0.17439, "Shape_Area": 0.00101}}, {"type": "Feature", "geometry": {"type": "Point", "coordinates": [150.76880518403254, -33.755338203153585]}, "properties": {"OBJECTID": 129, "Name": "St Mary's IMT", "operational_status": "Proposed", "Hectares": 26.92829, "KFR": null, "Shape_Length": 0.04117, "Shape_Area": 2.62039e-05}}, {"type": "Feature", "geometry": {"type": "Point", "coordinates": [146.19109145298376, -34.24648200037626]}, "properties": {"OBJECTID": 130, "Name": "Yenda IMT", "operational_status": "Proposed", "Hectares": 10.68859, "KFR": null, "Shape_Length": 0.03007, "Shape_Area": 1.04598e-05}}, {"type": "Feature", "geometry": {"type": "Point", "coordinates": [149.1531229649451, -35.31933907394273]}, "properties": {"OBJECTID": 131, "Name": "Canberra Rail Freight Yard", "operational_status": "Closed", "Hectares": 2.33754, "KFR": null, "Shape_Length": 0.01544, "Shape_Area": 2.31694e-06}}, {"type": "Feature", "geometry": {"type": "Point", "coordinates": [149.2521943788195, -33.52609056651452]}, "properties": {"OBJECTID": 132, "Name": "Blayney Newcrest Container Terminal", "operational_status": "Operational", "Hectares": 1.32484, "KFR": null, "Shape_Length": 0.00723, "Shape_Area": 1.28586e-06}}, {"type": "Feature", "geometry": {"type": "Point", "coordinates": [147.7658381654708, -31.77019069964124]}, "properties": {"OBJECTID": 133, "Name": "Auscott Macquarie Warehouses", "operational_status": "Operational", "Hectares": 6.25019, "KFR": null, "Shape_Length": 0.01367, "Shape_Area": 5.95051e-06}}, {"type": "Feature", "geometry": {"type": "Point", "coordinates": [149.7790340915391, -30.307478858609116]}, "properties": {"OBJECTID": 134, "Name": "Narrabri IMT", "operational_status": "Operational", "Hectares": 6.5405, "KFR": null, "Shape_Length": 0.0135, "Shape_Area": 6.1338e-06}}, {"type": "Feature", "geometry": {"type": "Point", "coordinates": [151.21993478459427, -33.958029571212364]}, "properties": {"OBJECTID": 135, "Name": "Banksmeadow Transfer Terminal (BTT)", "operational_status": "Operational", "Hectares": 1.94462, "KFR": null, "Shape_Length": 0.01002, "Shape_Area": 1.89673e-06}}, {"type": "Feature", "geometry": {"type": "Point", "coordinates": [151.22079563450745, -33.9577183412476]}, "properties": {"OBJECTID": 136, "Name": "Banksmeadow Container Terminal", "operational_status": "Operational", "Hectares": 2.69138, "KFR": null, "Shape_Length": 0.00875, "Shape_Area": 2.62511e-06}}, {"type": "Feature", "geometry": {"type": "Point", "coordinates": [146.36366139615984, -41.19062335048539]}, "properties": {"OBJECTID": 137, "Name": "Devonport IMT", "operational_status": "Operational", "Hectares": 3.5376, "KFR": null, "Shape_Length": 0.01022, "Shape_Area": 3.79698e-06}}, {"type": "Feature", "geometry": {"type": "Point", "coordinates": [146.84537417867776, -41.11977989218845]}, "properties": {"OBJECTID": 138, "Name": "George Town Freight Terminal", "operational_status": "Operational", "Hectares": 8.35045, "KFR": null, "Shape_Length": 0.04172, "Shape_Area": 8.95332e-06}}, {"type": "Feature", "geometry": {"type": "Point", "coordinates": [147.43092088285073, -41.82647230953358]}, "properties": {"OBJECTID": 139, "Name": "Conara Freight Terminal", "operational_status": "Operational", "Hectares": 4.63272, "KFR": null, "Shape_Length": 0.01657, "Shape_Area": 5.02052e-06}}, {"type": "Feature", "geometry": {"type": "Point", "coordinates": [147.15567815161145, -41.429875219371056]}, "properties": {"OBJECTID": 140, "Name": "Launceston Freight Terminal", "operational_status": "Operational", "Hectares": 8.34265, "KFR": null, "Shape_Length": 0.01439, "Shape_Area": 8.9868e-06}}, {"type": "Feature", "geometry": {"type": "Point", "coordinates": [147.33694526252168, -42.87960277770924]}, "properties": {"OBJECTID": 141, "Name": "Hobart Freight Terminal", "operational_status": "Closed", "Hectares": 8.46827, "KFR": null, "Shape_Length": 0.01505, "Shape_Area": 9.33031e-06}}, {"type": "Feature", "geometry": {"type": "Point", "coordinates": [134.731566029206, -14.733234805584695]}, "properties": {"OBJECTID": 142, "Name": "Ngukurr Freight Hub", "operational_status": "Operational", "Hectares": 1.36598, "KFR": null, "Shape_Length": 0.00626, "Shape_Area": 1.14647e-06}}, {"type": "Feature", "geometry": {"type": "Point", "coordinates": [135.72543711908114, -14.283947089975001]}, "properties": {"OBJECTID": 143, "Name": "Numbulwar Freight Hub", "operational_status": "Operational", "Hectares": 1.01908, "KFR": null, "Shape_Length": 0.00435, "Shape_Area": 8.5363e-07}}, {"type": "Feature", "geometry": {"type": "Point", "coordinates": [145.9081733003353, -41.05540758078544]}, "properties": {"OBJECTID": 144, "Name": "Burnie ITM", "operational_status": "Operational", "Hectares": 2.33237, "KFR": "Y", "Shape_Length": 0.00826, "Shape_Area": 2.49831e-06}}, {"type": "Feature", "geometry": {"type": "Point", "coordinates": [146.43239790540724, -38.23824428194959]}, "properties": {"OBJECTID": 145, "Name": "Gippsland Intermodal Freight Terminal (GIFT)", "operational_status": "Closed", "Hectares": 9.36103, "KFR": null, "Shape_Length": 0.02862, "Shape_Area": 9.63274e-06}}, {"type": "Feature", "geometry": {"type": "Point", "coordinates": [146.43142563135083, -38.24108068550822]}, "properties": {"OBJECTID": 146, "Name": "Gippsland Logisitic Precinct (GLP)", "operational_status": "Proposed", "Hectares": 78.96494, "KFR": null, "Shape_Length": 0.04075, "Shape_Area": 8.12612e-05}}, {"type": "Feature", "geometry": {"type": "Point", "coordinates": [145.4210407225703, -16.99258254739745]}, "properties": {"OBJECTID": 147, "Name": "Mareeba Freight Centre", "operational_status": "Closed", "Hectares": 1.9259, "KFR": null, "Shape_Length": 0.00824, "Shape_Area": 1.63418e-06}}, {"type": "Feature", "geometry": {"type": "Point", "coordinates": [146.1760515624109, -34.34118555658324]}, "properties": {"OBJECTID": 148, "Name": "Widgelli Rail Hub", "operational_status": "Proposed", "Hectares": 14.61364, "KFR": null, "Shape_Length": 0.03163, "Shape_Area": 1.43172e-05}}, {"type": "Feature", "geometry": {"type": "Point", "coordinates": [145.7296863293482, -33.99464687066714]}, "properties": {"OBJECTID": 149, "Name": "Goolgowi Grain Terminal", "operational_status": "Operational", "Hectares": 22.27255, "KFR": null, "Shape_Length": 0.02472, "Shape_Area": 2.17332e-05}}, {"type": "Feature", "geometry": {"type": "Point", "coordinates": [143.16940802227572, -35.8497343226568]}, "properties": {"OBJECTID": 150, "Name": "Nullawil Grain Facility", "operational_status": "Operational", "Hectares": 40.20875, "KFR": null, "Shape_Length": 0.02639, "Shape_Area": 4.01159e-05}}, {"type": "Feature", "geometry": {"type": "Point", "coordinates": [146.93916276093336, -36.14957747820077]}, "properties": {"OBJECTID": 151, "Name": "Bandiana Container Terminal", "operational_status": "Closed", "Hectares": 7.24687, "KFR": null, "Shape_Length": 0.03795, "Shape_Area": 7.25619e-06}}, {"type": "Feature", "geometry": {"type": "Point", "coordinates": [141.4774179996572, -31.956520338317386]}, "properties": {"OBJECTID": 152, "Name": "Broken Hill Hub", "operational_status": "Operational", "Hectares": 1.221, "KFR": null, "Shape_Length": 0.01274, "Shape_Area": 1.16475e-06}}, {"type": "Feature", "geometry": {"type": "Point", "coordinates": [148.6933394538382, -33.1869809930936]}, "properties": {"OBJECTID": 153, "Name": "Manildra Freight", "operational_status": "Operational", "Hectares": 0.86615, "KFR": null, "Shape_Length": 0.00454, "Shape_Area": 8.37446e-07}}, {"type": "Feature", "geometry": {"type": "Point", "coordinates": [147.7612618369695, -31.77590804223674]}, "properties": {"OBJECTID": 154, "Name": "Auscott Macquarie Warehouses", "operational_status": "Operational", "Hectares": 0.85639, "KFR": null, "Shape_Length": 0.00532, "Shape_Area": 8.15371e-07}}, {"type": "Feature", "geometry": {"type": "Point", "coordinates": [121.51715071584906, -28.934072885774214]}, "properties": {"OBJECTID": 155, "Name": "Malcolm Container Stand", "operational_status": "Operational", "Hectares": 5.14037, "KFR": null, "Shape_Length": 0.01131, "Shape_Area": 4.75676e-06}}, {"type": "Feature", "geometry": {"type": "Point", "coordinates": [149.7131115055811, -34.769169263397345]}, "properties": {"OBJECTID": 156, "Name": "Gouldburn IMT", "operational_status": "Operational", "Hectares": 1.5977, "KFR": null, "Shape_Length": 0.00574, "Shape_Area": 1.57323e-06}}, {"type": "Feature", "geometry": {"type": "Point", "coordinates": [151.95107569556936, -27.553168354428905]}, "properties": {"OBJECTID": 157, "Name": "Toowoomba Container Terminal", "operational_status": "Operational", "Hectares": 1.55218, "KFR": null, "Shape_Length": 0.00699, "Shape_Area": 1.41825e-06}}, {"type": "Feature", "geometry": {"type": "Point", "coordinates": [151.8549349001305, -27.498011164720083]}, "properties": {"OBJECTID": 158, "Name": "InterLinkSQ Global Logistic Centre (Intermodal)", "operational_status": "Proposed", "Hectares": 74.4816, "KFR": null, "Shape_Length": 0.04759, "Shape_Area": 6.8021e-05}}, {"type": "Feature", "geometry": {"type": "Point", "coordinates": [144.4838604899641, -38.011943566764046]}, "properties": {"OBJECTID": 159, "Name": "South West Interstate Freight Terminal (SWIFT)", "operational_status": "Proposed", "Hectares": 190.62003, "KFR": null, "Shape_Length": 0.06004, "Shape_Area": 0.00019}}, {"type": "Feature", "geometry": {"type": "Point", "coordinates": [152.34521306712568, -24.86915918875505]}, "properties": {"OBJECTID": 160, "Name": "Bundaberg Container Terminal", "operational_status": "Closed", "Hectares": 0.31871, "KFR": null, "Shape_Length": 0.00381, "Shape_Area": 2.84717e-07}}, {"type": "Feature", "geometry": {"type": "Point", "coordinates": [151.26887131389142, -23.852202273931027]}, "properties": {"OBJECTID": 161, "Name": "South Gladstone", "operational_status": "Closed", "Hectares": 1.73754, "KFR": null, "Shape_Length": 0.00624, "Shape_Area": 1.54004e-06}}, {"type": "Feature", "geometry": {"type": "Point", "coordinates": [151.26651166666664, -23.84682666666667]}, "properties": {"OBJECTID": 162, "Name": "Gladstone Depot", "operational_status": "Operational", "Hectares": 1.65338, "KFR": null, "Shape_Length": 0.00535, "Shape_Area": 1.46539e-06}}, {"type": "Feature", "geometry": {"type": "Point", "coordinates": [140.7783737380204, -36.310898463023335]}, "properties": {"OBJECTID": 163, "Name": "Bordertown", "operational_status": "Operational (Trial)", "Hectares": 1.71655, "KFR": null, "Shape_Length": 0.00811, "Shape_Area": 1.72249e-06}}, {"type": "Feature", "geometry": {"type": "Point", "coordinates": [138.49221693714932, -34.77050094783293]}, "properties": {"OBJECTID": 164, "Name": "Port of Adelaide - Flinders Adelaide Container Terminal", "operational_status": "Operational", "Hectares": 35.16152, "KFR": null, "Shape_Length": 0.047, "Shape_Area": 3.46237e-05}}, {"type": "Feature", "geometry": {"type": "Point", "coordinates": [137.84846050260438, -32.41848347528045]}, "properties": {"OBJECTID": 165, "Name": "Bungala IMT ", "operational_status": "Operational", "Hectares": 9.98704, "KFR": null, "Shape_Length": 0.02281, "Shape_Area": 9.57451e-06}}, {"type": "Feature", "geometry": {"type": "Point", "coordinates": [115.97415387808147, -32.012489058771756]}, "properties": {"OBJECTID": 166, "Name": "Kenwick Rail Freight Facility", "operational_status": "Under Construction", "Hectares": 19.92401, "KFR": null, "Shape_Length": 0.03385, "Shape_Area": 1.90175e-05}}, {"type": "Feature", "geometry": {"type": "Point", "coordinates": [145.74862743499367, -16.960287717725116]}, "properties": {"OBJECTID": 167, "Name": "Toll Intermodal Cairns", "operational_status": "Operational", "Hectares": 6.46692, "KFR": "Y", "Shape_Length": 0.01243, "Shape_Area": 5.48641e-06}}, {"type": "Feature", "geometry": {"type": "Point", "coordinates": [140.5068760915074, -20.695774046672387]}, "properties": {"OBJECTID": 168, "Name": "Followmont/Toll", "operational_status": "Operational", "Hectares": 12.77849, "KFR": null, "Shape_Length": 0.01681, "Shape_Area": 1.10789e-05}}, {"type": "Feature", "geometry": {"type": "Point", "coordinates": [140.6007659850566, -20.72666449110976]}, "properties": {"OBJECTID": 169, "Name": "Cloncurry Multi User Loadout Facility (MURLF)", "operational_status": "Proposed", "Hectares": 382.10535, "KFR": null, "Shape_Length": 0.11513, "Shape_Area": 0.00033}}, {"type": "Feature", "geometry": {"type": "Point", "coordinates": [150.26385849102283, -26.665535979613917]}, "properties": {"OBJECTID": 170, "Name": "Miles Supply Base (QCLNG Project)", "operational_status": "Operational", "Hectares": 29.52422, "KFR": null, "Shape_Length": 0.03126, "Shape_Area": 2.67684e-05}}, {"type": "Feature", "geometry": {"type": "Point", "coordinates": [146.24314053787108, -26.407262395304212]}, "properties": {"OBJECTID": 171, "Name": "Charleville IMT", "operational_status": "Operational", "Hectares": 0.64904, "KFR": null, "Shape_Length": 0.00476, "Shape_Area": 5.87171e-07}}, {"type": "Feature", "geometry": {"type": "Point", "coordinates": [150.34558458314885, -28.54975527698831]}, "properties": {"OBJECTID": 172, "Name": "Namoi Cotton Goondiwindi", "operational_status": "Operational", "Hectares": 19.3516, "KFR": null, "Shape_Length": 0.0274, "Shape_Area": 1.7843e-05}}, {"type": "Feature", "geometry": {"type": "Point", "coordinates": [150.30947384237206, -28.539095825267577]}, "properties": {"OBJECTID": 173, "Name": "Goondiwindi", "operational_status": "Closed", "Hectares": 0.35284, "KFR": null, "Shape_Length": 0.00332, "Shape_Area": 3.25307e-07}}, {"type": "Feature", "geometry": {"type": "Point", "coordinates": [150.50504618112046, -23.405492535902642]}, "properties": {"OBJECTID": 174, "Name": "Rockhampton QRX Depot", "operational_status": "Operational", "Hectares": 6.29992, "KFR": "Y", "Shape_Length": 0.01215, "Shape_Area": 5.56524e-06}}, {"type": "Feature", "geometry": {"type": "Point", "coordinates": [148.15214075203298, -23.52722930655044]}, "properties": {"OBJECTID": 175, "Name": "Emerald Freight Depot Centre", "operational_status": "Operational", "Hectares": 2.79751, "KFR": "Y", "Shape_Length": 0.00761, "Shape_Area": 2.4735e-06}}, {"type": "Feature", "geometry": {"type": "Point", "coordinates": [149.16500375622576, -21.17909802357803]}, "properties": {"OBJECTID": 176, "Name": "Mackay Toll", "operational_status": "Operational", "Hectares": 5.21874, "KFR": "Y", "Shape_Length": 0.01674, "Shape_Area": 4.53892e-06}}, {"type": "Feature", "geometry": {"type": "Point", "coordinates": [146.8599682447523, -19.34208253073878]}, "properties": {"OBJECTID": 177, "Name": "Toll Intermodal Heavy Haulage IMT", "operational_status": "Operational", "Hectares": 54.93307, "KFR": null, "Shape_Length": 0.03927, "Shape_Area": 4.72276e-05}}, {"type": "Feature", "geometry": {"type": "Point", "coordinates": [146.84307147028215, -19.25182118559031]}, "properties": {"OBJECTID": 178, "Name": "Port of Townsville Intermodal", "operational_status": "Proposed", "Hectares": 12.90199, "KFR": null, "Shape_Length": 0.01797, "Shape_Area": 1.10864e-05}}, {"type": "Feature", "geometry": {"type": "Point", "coordinates": [146.83673168043254, -19.249518452785367]}, "properties": {"OBJECTID": 179, "Name": "Port of Townsville", "operational_status": "Operational", "Hectares": 3.50056, "KFR": null, "Shape_Length": 0.00736, "Shape_Area": 3.00791e-06}}, {"type": "Feature", "geometry": {"type": "Point", "coordinates": [146.83509895069446, -19.251417730334488]}, "properties": {"OBJECTID": 180, "Name": "Port of Townsville (Berth 4)", "operational_status": "Operational", "Hectares": 1.34222, "KFR": null, "Shape_Length": 0.00541, "Shape_Area": 1.15334e-06}}, {"type": "Feature", "geometry": {"type": "Point", "coordinates": [146.83596098593122, -19.248973971266935]}, "properties": {"OBJECTID": 181, "Name": "Port of Townsville (Berth 3)", "operational_status": "Operational", "Hectares": 2.08751, "KFR": null, "Shape_Length": 0.00723, "Shape_Area": 1.79372e-06}}, {"type": "Feature", "geometry": {"type": "Point", "coordinates": [140.51059397878478, -20.7046435312418]}, "properties": {"OBJECTID": 182, "Name": "Cloncurry QLink", "operational_status": "Closed", "Hectares": 1.02479, "KFR": null, "Shape_Length": 0.00711, "Shape_Area": 8.88543e-07}}, {"type": "Feature", "geometry": {"type": "Point", "coordinates": [148.10832914940028, -33.12784656080708]}, "properties": {"OBJECTID": 183, "Name": "Parkes National Logistics Hub (PNLH)", "operational_status": "Proposed", "Hectares": 42.77709, "KFR": null, "Shape_Length": 0.04982, "Shape_Area": 4.13317e-05}}, {"type": "Feature", "geometry": {"type": "Point", "coordinates": [151.07570236647464, -33.907580801215595]}, "properties": {"OBJECTID": 184, "Name": "Belfield IMT", "operational_status": "Operational", "Hectares": 2.67372, "KFR": null, "Shape_Length": 0.00813, "Shape_Area": 2.60636e-06}}, {"type": "Feature", "geometry": {"type": "Point", "coordinates": [152.6490998748552, -27.700195128967728]}, "properties": {"OBJECTID": 185, "Name": "Ebenezer IFT", "operational_status": "Proposed", "Hectares": 88.00323, "KFR": null, "Shape_Length": 0.11657, "Shape_Area": 0.00041}}, {"type": "Feature", "geometry": {"type": "Point", "coordinates": [149.70501101822106, -30.329689121424845]}, "properties": {"OBJECTID": 186, "Name": "Northern NSW Inland Port (N2IP)", "operational_status": "Proposed", "Hectares": 373.38896, "KFR": null, "Shape_Length": 0.11554, "Shape_Area": 0.00035}}, {"type": "Feature", "geometry": {"type": "Point", "coordinates": [148.35162631371048, -23.581105059802546]}, "properties": {"OBJECTID": 187, "Name": "CQ Inland Port", "operational_status": "Under Construction", "Hectares": 34.69207, "KFR": null, "Shape_Length": 0.02566, "Shape_Area": 3.06862e-05}}, {"type": "Feature", "geometry": {"type": "Point", "coordinates": [148.34840370341007, -23.581533380124608]}, "properties": {"OBJECTID": 188, "Name": "Yamala ", "operational_status": "Under Construction", "Hectares": 47.4689, "KFR": null, "Shape_Length": 0.03556, "Shape_Area": 4.1988e-05}}, {"type": "Feature", "geometry": {"type": "Point", "coordinates": [147.14864165962464, -41.405485157564875]}, "properties": {"OBJECTID": 189, "Name": null, "operational_status": "Closed", "Hectares": 0.87204, "KFR": null, "Shape_Length": 0.00524, "Shape_Area": 9.39022e-07}}, {"type": "Feature", "geometry": {"type": "Point", "coordinates": [149.873236299088, -29.498107795038155]}, "properties": {"OBJECTID": 190, "Name": "Moree Intermodal Park", "operational_status": "Proposed", "Hectares": 602.61007, "KFR": null, "Shape_Length": 0.10377, "Shape_Area": 0.00056}}, {"type": "Feature", "geometry": {"type": "Point", "coordinates": [147.09890684571118, -42.77911467979944]}, "properties": {"OBJECTID": 191, "Name": "Boyer Norske Skog Freight Terminal", "operational_status": "Operational", "Hectares": 3.18598, "KFR": null, "Shape_Length": 0.01223, "Shape_Area": 3.50468e-06}}, {"type": "Feature", "geometry": {"type": "Point", "coordinates": [150.8664473018712, -31.077961879682498]}, "properties": {"OBJECTID": 192, "Name": "Tamworth IMT", "operational_status": "Under Construction", "Hectares": null, "KFR": null, "Shape_Length": 0.01868, "Shape_Area": 9.26002e-06}}, {"type": "Feature", "geometry": {"type": "Point", "coordinates": [148.25650891707997, -32.23779036518513]}, "properties": {"OBJECTID": 193, "Name": "Narromine Industrial Precinct and Freight Exchange", "operational_status": "Proposed", "Hectares": null, "KFR": null, "Shape_Length": 0.02728, "Shape_Area": 3.01609e-05}}, {"type": "Feature", "geometry": {"type": "Point", "coordinates": [145.17900677668254, -36.889671772334275]}, "properties": {"OBJECTID": 194, "Name": "Mangalore Airfield Intermodal Freight Terminal (MAIFT)", "operational_status": "Proposed", "Hectares": null, "KFR": null, "Shape_Length": 0.09452, "Shape_Area": 0.00048}}, {"type": "Feature", "geometry": {"type": "Point", "coordinates": [151.80992110634105, -27.55200187115529]}, "properties": {"OBJECTID": 195, "Name": "Wellcamp", "operational_status": "Proposed", "Hectares": null, "KFR": null, "Shape_Length": 0.09743, "Shape_Area": 0.00046}}, {"type": "Feature", "geometry": {"type": "Point", "coordinates": [142.35981122006942, -35.15107128245683]}, "properties": {"OBJECTID": 196, "Name": "Sunraysia Mallee Port Link IMT", "operational_status": "Proposed", "Hectares": null, "KFR": null, "Shape_Length": 0.04862, "Shape_Area": 0.00011}}, {"type": "Feature", "geometry": {"type": "Point", "coordinates": [115.99704667713132, -31.68930066200634]}, "properties": {"OBJECTID": 197, "Name": "Bullsbrook Intermodal Terminal", "operational_status": "Proposed", "Hectares": null, "KFR": null, "Shape_Length": 0.04741, "Shape_Area": 7.97998e-05}}, {"type": "Feature", "geometry": {"type": "Point", "coordinates": [150.64474550419982, -31.35368557402048]}, "properties": {"OBJECTID": 198, "Name": "Werris Creek IMT", "operational_status": "Operational", "Hectares": null, "KFR": null, "Shape_Length": 0.02154, "Shape_Area": 9.31469e-06}}, {"type": "Feature", "geometry": {"type": "Point", "coordinates": [144.9209666626493, -37.80917508532668]}, "properties": {"OBJECTID": 199, "Name": "Metropolitan Intermodal Rail Terminal (MIRT)", "operational_status": "Under Construction", "Hectares": null, "KFR": null, "Shape_Length": 0.02302, "Shape_Area": 1.57906e-05}}, {"type": "Feature", "geometry": {"type": "Point", "coordinates": [144.2537291306252, -32.91434581477124]}, "properties": {"OBJECTID": 200, "Name": "Ivanhoe Rail Facility", "operational_status": "Proposed", "Hectares": null, "KFR": null, "Shape_Length": 0.08458, "Shape_Area": 2.68187e-05}}, {"type": "Feature", "geometry": {"type": "Point", "coordinates": [145.00749716712866, -37.454967516656204]}, "properties": {"OBJECTID": 201, "Name": "Beveridge Intermodal Freight Terminal (BIFT)", "operational_status": "Proposed", "Hectares": 665.74144, "KFR": null, "Shape_Length": 0.07213, "Shape_Area": 9.96104e-05}}]}